고유번호,   식당명, 분류명, 행정동명, 위도, 경도, 평점, 방문자리뷰수, 전화번호, 주소, 이미지
1292414361, 카페 드 파리, 카페, 명동, 37.562711, 126.983746, 4.7, 23, 010-2216-0020, 서울 중구 명동4길 26 2층,https://img1.kakaocdn.net/cthumb/local/R0x420/?fname=http%3A%2F%2Ft1.daumcdn.net%2Fplace%2FEF9E18F8FFFA4CB2A79BACFF0E94285E
1798095400, 몰또이탈리안에소프레소바, 카페, 명동, 37.564577, 126.986213, 3.4, 144, 02-778-7779, 서울 중구 명동길 73 3층,https://img1.kakaocdn.net/cthumb/local/R0x420/?fname=http%3A%2F%2Ft1.kakaocdn.net%2Ffiy_reboot%2Fplace%2F377F1DB0D8654B3A92404606766530AE
26934440, 르빵명동성당점, 카페, 명동, 37.563240, 126.987005, 3.6, 84, 02-3789-7545, 서울 중구 명동길 74 B103호,https://img1.kakaocdn.net/cthumb/local/R0x420/?fname=http%3A%2F%2Ft1.daumcdn.net%2Fplace%2F180B8D786395466E917E84CCF1162DB2
1911581917, 가배도명동, 카페, 명동, 37.560576, 126.985138, 4.2, 333, 0507-1304-4542, 서울 중구 퇴계로18길 10 1층,https://img1.kakaocdn.net/cthumb/local/R0x420/?fname=http%3A%2F%2Ft1.daumcdn.net%2Flocal%2FkakaomapPhoto%2Freview%2F6505fdf4b696aec089cc5c1d580cd3137acebf88%3Foriginal
474005666, 스타벅스레스케이프호텔R점, 카페, 명동, 37.560091, 126.979491, 4.3, 221, 1522-3232, 서울 중구 퇴게로 67 7층,https://img1.kakaocdn.net/cthumb/local/R0x420/?fname=http%3A%2F%2Ft1.kakaocdn.net%2Ffiy_reboot%2Fplace%2F882962E97DF84135B42BFA01A369E553
1440347564, 커피한약방, 카페, 명동, 37.566757, 126.988612, 3.8, 592, 070-4148-4242, 서울 중구 삼일대로12길 16-6 1층,https://img1.kakaocdn.net/cthumb/local/R0x420/?fname=http%3A%2F%2Ft1.daumcdn.net%2Fplace%2F2850329721C0415B8F08010707125C41
10332413, 명동교자 본점, 한식, 명동, 37.562768,126.985595, 3.6, 3147, 02-776-5348, 서울 중구 명동10길 29,https://img1.kakaocdn.net/cthumb/local/R0x420/?fname=http%3A%2F%2Ft1.daumcdn.net%2Fplace%2FF3BDF45B8EC247F896E4FB7B7C2B5121
25708791, 원조 곱창떡볶이 화떡, 한식, 명동, 37.563098, 126.983777, 3.7, 141, 02-772-9991, 서울 중구 명동4길 15-2 3층,https://img1.kakaocdn.net/cthumb/local/R0x420/?fname=http%3A%2F%2Ft1.daumcdn.net%2Fplace%2FD1813342DB514AFD920BC1A3F5D83808
21396812, 쯔루하시 후게츠 명동점, 일식, 명동, 37.563550, 126.984802, 4.0, 725, 02-3789-5920, 서울 중구 명동8길 21-5 2층,https://img1.kakaocdn.net/cthumb/local/R0x420/?fname=http%3A%2F%2Ft1.daumcdn.net%2Fplace%2F2BF3F993EDE04AFF8D5F3FF18C549E1C
1822111964, 하동관 명동본점, 한식, 명동,37.566087, 126.985414, 2.5, 330, 02-776-5656, 서울 중구 명동9길 12,https://img1.kakaocdn.net/cthumb/local/R0x420/?fname=http%3A%2F%2Ft1.daumcdn.net%2Fplace%2F4B16B23F578C4B86A8B4E36217D9C516
12793877, 란주라미엔, 중식, 명동, 37.561432, 126.982246, 3.7, 713, -, 서울 중구 소공로 64,https://img1.kakaocdn.net/cthumb/local/R0x420/?fname=http%3A%2F%2Ft1.kakaocdn.net%2Ffiy_reboot%2Fplace%2FBEB20100E32A45149ADA06C68C166C7B
21232315, 남포면옥, 한식, 명동, 37.567343, 126.981542, 2.9, 442, 02-777-3131, 서울 중구 을지로3길 24,https://img1.kakaocdn.net/cthumb/local/R0x420/?fname=http%3A%2F%2Ft1.kakaocdn.net%2Ffiy_reboot%2Fplace%2F3D244F5E3017412CB8F60CCAA3F42050
22906526, 딘타이펑 명동점, 중식, 명동,37.564775, 126.984219, 4.43, 316, 02-3789-2778, 서울 중구 명동7길 13 호텔28 2층,https://img1.kakaocdn.net/cthumb/local/R0x420/?fname=http%3A%2F%2Ft1.daumcdn.net%2Flocalfiy%2Fsearchregister_2124189096
26646897, 꽁시면관 본점, 중식, 명동, 37.562177, 126.983413, 3.2, 270, 0507-1370-8863, 서울 중구 명동2길 45 꽁시면관,https://img1.kakaocdn.net/cthumb/local/R0x420/?fname=http%3A%2F%2Ft1.daumcdn.net%2Fplace%2FA0A33137287C420396DB0F76E4BAA309
19409195, 명동피자 명동본점, 양식, 명동, 37.563058, 126.985687, 3.1, 177, 02-777-8979, 서울 중구 명동10길 41 챔피언빌딩 4층,https://img1.kakaocdn.net/cthumb/local/R0x420/?fname=http%3A%2F%2Ft1.daumcdn.net%2Fcfile%2F227C644D559CE5D330
18241603, 동강나루터, 한식, 명동, 37.566766, 126.988700, 4.4, 94, 02-2273-5989, 서울 중구 을지로 99 2층,https://img1.kakaocdn.net/cthumb/local/R0x420/?fname=http%3A%2F%2Ft1.daumcdn.net%2Fplace%2F924F6523510E45FDA2946E04FAB97CAC
8593705, 촛불1978, 양식, 명동, 37.557040, 126.985309, 3.6, 304, 02-757-1978, 서울 중구 소파로 95 2 3층,https://img1.kakaocdn.net/cthumb/local/R0x420/?fname=http%3A%2F%2Ft1.daumcdn.net%2Fcfile%2F235B3D3655AE3D680B
11642405, 목멱산방, 한식, 명동, 37.558306, 126.986867, 3.2, 511, 02-318-4790, 서울 중구 퇴계로20길 71 1층,https://img1.kakaocdn.net/cthumb/local/R0x420/?fname=http%3A%2F%2Ft1.daumcdn.net%2Fplace%2FADE76E31B9574E25BEB0B1D661DDBAFC
922937288, 신동궁감자탕 명동직영점, 한식, 명동, 37.565831, 126.984008, 3.5, 238, 02-318-4222, 서울 중구 명동9길 43,https://img1.kakaocdn.net/cthumb/local/R0x420/?fname=http%3A%2F%2Ft1.kakaocdn.net%2Ffiy_reboot%2Fplace%2FC7DC88C9F354462E95190B8ABF8AA140
11064200, 무교동북어국집, 한식, 명동, 37.567985, 126.979797, 4.5, 364, 02-777-3891, 서울 중구 을지로1길 38,https://img1.kakaocdn.net/cthumb/local/R0x420/?fname=http%3A%2F%2Ft1.kakaocdn.net%2Ffiy_reboot%2Fplace%2FA10E6F7D665F4BF1830F507D8AF00353
26874878, 더식당, 한식, 명동, 37.563165, 126.985612, 3.4, 217, 02-318-2234, 서울 중구 명동10길 36 아트박스 2층,https://img1.kakaocdn.net/cthumb/local/R0x420/?fname=http%3A%2F%2Ft1.daumcdn.net%2Flocalfiy%2FCEB666C3C2DD4B318C82D6FA5A98A996
1346301870, 부민옥, 한식, 명동, 37.567727, 126.980351, 3.5, 126, 02-777-4323, 서울 중구 다동길 24-12,https://img1.kakaocdn.net/cthumb/local/R0x420/?fname=http%3A%2F%2Ft1.daumcdn.net%2Fplace%2FF337603534FB478B9F47FA16D4315AD1
7855268, 이북만두, 한식, 명동, 37.567461, 126.978423, 2.6, 177, 02-776-7361, 서울 중구 무교로 17-13 골목 끝 이북만두,https://img1.kakaocdn.net/cthumb/local/R0x420/?fname=http%3A%2F%2Ft1.kakaocdn.net%2Fmystore%2FC93C0F0A6FB74690BF460E335F7B9D65
25733230, 강남면옥 명동점, 한식, 명동, 37.564275, 126.984489, 3.4, 119, 02-3789-7117, 서울 중구 명동7길 8 미래빌딩 5층,https://img1.kakaocdn.net/cthumb/local/R0x420/?fname=http%3A%2F%2Ft1.daumcdn.net%2Fplace%2F20D915E9D564450F80CB39F59B02FBB4
9387801, 을지로 전주옥, 한식, 명동, 37.566345, 126.989029, 4.43, 496, 02-2277-5657, 서울 중구 충무로7길 19 1층,https://img1.kakaocdn.net/cthumb/local/R0x420/?fname=http%3A%2F%2Ft1.kakaocdn.net%2Ffiy_reboot%2Fplace%2F27793850DC8746CFA4E5CAB8E2107DC4
255438897, 스케줄오스테리아, 양식, 명동, 37.568585, 126.982213, 2.2, 172, 0507-1456-0300, 서울 중구 남대문로 125 2층 202호,https://img1.kakaocdn.net/cthumb/local/R0x420/?fname=http%3A%2F%2Ft1.kakaocdn.net%2Ffiy_reboot%2Fplace%2F47F97696E38E4A5C8EF0A4BA26F59DEE
651364551, Nice Time2, 양식, 명동, 37.567163, 126.981989, 4, 40, 02-2039-1457, 서울 중구 남대문로9길 6 스몰하우스 빅도어 1층,https://img1.kakaocdn.net/cthumb/local/R0x420/?fname=http%3A%2F%2Ft1.daumcdn.net%2Fplace%2F82B951411F7C410E8678362397D5B579
13050974, 마노디셰프 명동점, 양식, 명동, 37.563563, 126.983683, 4.1, 218, 02-777-7047, 서울 중구 명동길 26 유네스코빌딩 11층,https://img1.kakaocdn.net/cthumb/local/R0x420/?fname=http%3A%2F%2Ft1.daumcdn.net%2Fcfile%2F121AFB4B4F64183302
18545883, 보나베띠 명동점, 양식, 명동, 37.561668, 126.986040, 1.8, 58, 0507-1426-0020, 서울 중구 명동10길 51 나인트리호텔 3층,https://img1.kakaocdn.net/cthumb/local/R0x420/?fname=http%3A%2F%2Ft1.daumcdn.net%2Fcfile%2F27157D4352D76A8521
18443723, 우도일식, 일식, 명동, 37.567489, 126.977858, 4, 4, 02-722-2273, 서울 중구 세종대로 124 지하 1층,https://img1.kakaocdn.net/cthumb/local/R0x420/?fname=http%3A%2F%2Ft1.daumcdn.net%2Flocal%2FkakaomapPhoto%2Freview%2F3d69aebdad71db5d0b4b4f80f368c81806b22148%3Foriginal
1501950936, 멘텐, 일식, 명동, 37.562091, 126.988619, 3.7, 200, -, 서울 중구 삼일대로 305 동북빌딩 1층,https://img1.kakaocdn.net/cthumb/local/R0x420/?fname=http%3A%2F%2Ft1.daumcdn.net%2Flocal%2FkakaomapPhoto%2Freview%2Fb93569521d588819b31daa8c8d75d6c4f83c9e37%3Foriginal
220828644, 이나니와요스케 시청점, 일식, 명동, 37.565487, 126.979131, 3, 118, 02-772-9994, 서울 중구 을지로 6 재능빌딩 1층,https://img1.kakaocdn.net/cthumb/local/R0x420/?fname=http%3A%2F%2Ft1.daumcdn.net%2Fplace%2F8E495754775F45029C3DF3813C3347F9
21325473, 안즈, 일식, 명동, 37.567116, 126.983954, 2.8, 95, 02-6353-8948, 서울 중구 을지로5길 19 페럼타워 지하 1층,https://img1.kakaocdn.net/cthumb/local/R0x420/?fname=http%3A%2F%2Ft1.daumcdn.net%2Fcfile%2F120C3E3C4F459E6403
1914725849, 매화양꼬치 명동점, 중식, 명동, 37.559559, 126.985999, 4.2, 43, 02-772-9289, 서울 중구 퇴계로20길 19,https://img1.kakaocdn.net/cthumb/local/R0x420/?fname=http%3A%2F%2Ft1.daumcdn.net%2Fplace%2FFEEC33F1B9E44858999C8890E7C39A55
8577709, 초류향, 중식, 명동, 37.567567, 126.980417, 3.1, 212, 02-775-2668, 서울 중구 다동길 24-10,https://img1.kakaocdn.net/cthumb/local/R0x420/?fname=http%3A%2F%2Ft1.daumcdn.net%2Flocalfiy%2FD445145C790347C48091C93A8247EA13
19736781, 유가, 중식, 명동, 37.556681, 126.981467, 4.3, 148, 02-3789-9688, 서울 중구 퇴계로12길 68,https://img1.kakaocdn.net/cthumb/local/R0x420/?fname=http%3A%2F%2Ft1.daumcdn.net%2Fplace%2FD98FD23B1CDF4B1C88E5CD6B3D05732E
10130879, 개화 명동점, 중식, 명동, 37.562351, 126.981627, 3, 37, 02-776-0508, 서울 중구 남대문로 52-5,https://img1.kakaocdn.net/cthumb/local/R0x420/?fname=http%3A%2F%2Ft1.daumcdn.net%2Fplace%2FAB3761291A76411EB6DF48F7E1554006
1981529534, 팀호완 명동점, 중식, 명동, 37.562072, 126.986460, 4.2, 222, 02-6272-3081, 서울 중구 명동8가길 27 2층,https://img1.kakaocdn.net/cthumb/local/R0x420/?fname=http%3A%2F%2Ft1.kakaocdn.net%2Fmystore%2FF0EC2053AAC647DB83B2FA197B21335B
7912905, 산동교자, 중식, 명동, 37.562255, 126.982306, 2.7, 175, 02-778-4150, 서울 중구 남대문로 52-13,https://img1.kakaocdn.net/cthumb/local/R0x420/?fname=http%3A%2F%2Ft1.daumcdn.net%2Fplace%2F7E16D8AD3F5440FD9E646A7702C22E25
118964624, 조개와, 한식, 명동, 37.564628, 126.984212, 2.9, 68, 02-777-0317, 서울 중구 명동7길 17,https://img1.kakaocdn.net/cthumb/local/R0x420/?fname=http%3A%2F%2Ft1.daumcdn.net%2Flocal%2FkakaomapPhoto%2Freview%2F88c3706ffd542ac8a826c87836581eda35234fea%3Foriginal
1820258951, 하이디라오 명동점, 중식, 명동, 37.565565,126.983760, 4.1, 407, 02-3789-3888, 서울 중구 명동3길 36 마이티빌딩 1층,https://img1.kakaocdn.net/cthumb/local/R0x420/?fname=http%3A%2F%2Ft1.kakaocdn.net%2Fmystore%2F0114A5F6E3CB436C83C0485F728349AC
9352032, 인천집, 한식, 명동, 37.568011, 126.981269, 3.2, 74, 02-776-6583, 서울 중구 다동길 36,https://img1.kakaocdn.net/cthumb/local/R0x420/?fname=http%3A%2F%2Ft1.kakaocdn.net%2Ffiy_reboot%2Fplace%2FED2FD9EB2A8D49B583C09490E110BCA5
19608211, 스시이소, 일식, 명동, 37.561578, 126.990052, 3.2, 104, 02-2263-4401, 서울 중구 퇴계로 163-1,https://img1.kakaocdn.net/cthumb/local/R0x420/?fname=http%3A%2F%2Ft1.daumcdn.net%2Fplace%2F1E7A6E8E1A514C2C94C39238E53D2626
10668060, 이남장 을지로본점, 한식, 명동, 37.566781, 126.988664, 4, 106, 02-2267-4081, 서울 중구 삼일대로12길 16 1층,https://img1.kakaocdn.net/cthumb/local/R0x420/?fname=http%3A%2F%2Ft1.kakaocdn.net%2Ffiy_reboot%2Fplace%2F44E9039A4511486681E09DF972D357F0
10372376, 라칸티나, 양식, 명동, 37.566364, 126.979900, 3.3, 194, 02-777-2580, 서울 중구 을지로 19 삼성빌딩 지하 1층,https://img1.kakaocdn.net/cthumb/local/R0x420/?fname=http%3A%2F%2Ft1.daumcdn.net%2Fplace%2F342DD268B8824A56B4A8C8D0CAABD4C4
13010121, 아미소, 한식, 명동, 37.562519, 126.984074, 2.5, 49, 02-756-3317, 서울 중구 명동4길 25 포라리스 5층,https://img1.kakaocdn.net/cthumb/local/R0x420/?fname=http%3A%2F%2Ft1.daumcdn.net%2Fplace%2F0A2CBF83C7A640D5B2B7AE439D5ED012
26853115, 순남시래기 명동점, 한식, 명동, 37.563124, 126.985736, 4.4, 46, 02-3789-9292, 서울 중구 명동10길 35-20,https://img1.kakaocdn.net/cthumb/local/R0x420/?fname=http%3A%2F%2Ft1.kakaocdn.net%2Fmystore%2FEBF23B66594B461D95CB2C3C637762D7
1776984186, 식당진, 일식, 명동, 37.560774, 126.986521, 3.4, 18, 02-755-7558, 서울 중구 퇴게로22길 지하1층,https://img1.kakaocdn.net/cthumb/local/R0x420/?fname=http%3A%2F%2Ft1.daumcdn.net%2Fcfile%2F242F493E5862920E19
908123477, 샬레 드 서울, 카페, 명동, 37.558906, 126.987199, 5, 2, 0507-1349-3149, 서울 중구 소파로 129,https://img1.kakaocdn.net/cthumb/local/R0x420/?fname=http%3A%2F%2Ft1.daumcdn.net%2Fplace%2F8AEF1A7F97BD4ADFBD1534A4AEC265A0
715789708, 버드더카페, 카페, 명동, 37.559257, 126.984675, 3.9, 44, 02-777-0083, 서울 중구 퇴계로18길 46,https://img1.kakaocdn.net/cthumb/local/R0x420/?fname=http%3A%2F%2Ft1.daumcdn.net%2Flocalfiy%2F58DD42FF590146DAA10C1B7BA93D32B8
8123091, 포엠, 카페, 명동, 37.563228, 126.983721, 4.6, 220, 02-776-5003, 서울 중구 명동4길 13 2층,https://img1.kakaocdn.net/cthumb/local/R0x420/?fname=http%3A%2F%2Ft1.kakaocdn.net%2Fmystore%2FBD828919D082428982D2970B23784B07
8888717, 도향촌, 카페, 명동, 37.562246, 126.982343, 4.3, 36, 02-776-5671, 서울 중구 남대문로 52-13,https://img1.kakaocdn.net/cthumb/local/R0x420/?fname=http%3A%2F%2Ft1.daumcdn.net%2Flocal%2FkakaomapPhoto%2Freview%2F525716ebad53183d8e58ae95bc84cdada61c2277ae090dd3bda64fad5e513d3e
448756749, 리사르커피 명동점, 카페, 명동, 37.561843, 126.988244, 4.2, 153, 0507-1307-0961, 서울 중구 명동8가길 58 1층,https://img1.kakaocdn.net/cthumb/local/R0x420/?fname=http%3A%2F%2Ft1.daumcdn.net%2Fplace%2F9A6A86BB9EFB44AEA91B35D7EE4A6EA3
26609754, 에쎄레젤라또, 카페, 명동, 37.563457, 126.986843, 4, 37, 0507-1353-5860, 서울 중구 명동길 74 명동성당 B104호,https://img1.kakaocdn.net/cthumb/local/R0x420/?fname=http%3A%2F%2Ft1.daumcdn.net%2Fplace%2F6D71A38E72D944EC8A0C4B0F53FE00E7
77566759, 크림시크, 카페, 명동, 37.564575, 126.984028, 4.7, 478, 02-779-9271, 서울 중구 명동7길 13 1층,https://img1.kakaocdn.net/cthumb/local/R0x420/?fname=http%3A%2F%2Ft1.daumcdn.net%2Fplace%2FEF9CA5B3ADF748D895504633318A6FA8
547004141, 수묵당, 한식, 강남, 37.519081, 127.039938, 4.5, 222, 010-5109-1427, 서울 강남구 도곡로23길 33 1층 101호,https://img1.kakaocdn.net/cthumb/local/R0x420/?fname=http%3A%2F%2Ft1.daumcdn.net%2Flocal%2FkakaomapPhoto%2Freview%2F69c84ecec41990463c740353533394556138fbef3299b56290da384717b4e9fc
8015540, 오무라안, 일식, 강남, 37.496199, 127.033569, 3.5, 59, 02-569-8610, 서울 강남구 논현로79길 66,https://img1.kakaocdn.net/cthumb/local/R0x420/?fname=http%3A%2F%2Ft1.kakaocdn.net%2Ffiy_reboot%2Fplace%2F1FF9C60787C9471AB3DD3A490CFEA9AE
7912852, 봉우화로, 한식, 강남, 37.501769, 127.027383, 2.8, 442, 02-558-8452, 서울 강남구 봉은사로18길 76,https://img1.kakaocdn.net/cthumb/local/R0x420/?fname=http%3A%2F%2Ft1.daumcdn.net%2Fcfile%2F2743943E5355D0CE2A
8427647, 소호정 강남점, 한식, 강남, 37.495842, 127.027402, 3.3, 62, 02-583-6063, 서울 서초구 서초대로78길 22 홍우빌딩 2층,https://img1.kakaocdn.net/cthumb/local/R0x420/?fname=http%3A%2F%2Ft1.daumcdn.net%2Fplace%2FC0B22A3EF902460B93ADF3433C4EAE82
14585892, 도치피자 강남, 양식, 강남, 37.501009, 127.028882, 3.3, 269, 02-556-8001, 서울 강남구 강남대로98길,https://img1.kakaocdn.net/cthumb/local/R0x420/?fname=http%3A%2F%2Ft1.daumcdn.net%2Fcfile%2F135BC5414F46FA4733
1811506643, 분짜라붐 역삼점, 중식, 강남, 37.501521, 127.035024, 3.6, 59, 02-567-5379, 서울 강남구 테헤란로25길 13 1 2층,https://img1.kakaocdn.net/cthumb/local/R0x420/?fname=http%3A%2F%2Ft1.daumcdn.net%2Fplace%2F161F5FA810914688912249A3902A6735
414107084, 무월식탁, 한식, 강남, 37.502587, 127.027295, 2.4, 80, 02-552-9280, 서울 강남구 강남대로102길 23 1층,https://img1.kakaocdn.net/cthumb/local/R0x420/?fname=http%3A%2F%2Ft1.daumcdn.net%2Fplace%2FBAF80D244E90429B9BBD39B74B6C3E63
8735236, 강남목장, 한식, 강남, 37.500334, 127.040293, 3.2, 40, 02-562-7003, 서울 강남구 논현로86길 34,https://img1.kakaocdn.net/cthumb/local/R0x420/?fname=http%3A%2F%2Ft1.daumcdn.net%2Fplace%2F13C04F5236014A39B03B7CE9628BBC3C
14982154, 짱이네 산곰장어, 한식, 강남, 37.509371, 127.037259, 3.6, 22, 02-514-3554, 서울 강남구 언주로 605,https://img1.kakaocdn.net/cthumb/local/R0x420/?fname=http%3A%2F%2Ft1.daumcdn.net%2Fplace%2F2E309B6A0F404601B762EE3617CEDF92
97228163, 미 피아체, 양식, 강남, 37.521306, 127.044928, 4.3, 29, 02-516-6317, 서울 강남구 도산대로70길 34 1층,https://img1.kakaocdn.net/cthumb/local/R0x420/?fname=http%3A%2F%2Ft1.kakaocdn.net%2Ffiy_reboot%2Fplace%2F3DEBA0813EBE4727BB883954752856A8
1201719127, 라공방 강남역점, 중식, 강남, 37.499942, 127.027382, 2.3, 28, 02-566-5002, 서울 강남구 테헤란로1길 25 1층,https://img1.kakaocdn.net/cthumb/local/R0x420/?fname=http%3A%2F%2Ft1.daumcdn.net%2Fplace%2FBA1C081E643C40168AE9EBCEF2BBAD71
2005375589, 썸띵어바웃커피, 카페, 강남, 37.502802, 127.027808, 3.6, 909, -, 서울 강남구 강남대로102길 30 1~3층, https://img1.kakaocdn.net/cthumb/local/R0x420/?fname=http%3A%2F%2Ft1.kakaocdn.net%2Ffiy_reboot%2Fplace%2F9521163CEF8349FC97A36C3242E1EEB9
35026031, 스타벅스 강남R점, 카페, 강남, 37.497866, 127.028585, 4.1, 119, 1522-3232, 서울 강남구 강남대로 390 미진프리자 1층 101호,https://img1.kakaocdn.net/cthumb/local/R0x420/?fname=http%3A%2F%2Ft1.daumcdn.net%2Fplace%2F469AED68708949D7AC7F30BA780C4A41
764363993, 인포메이션 카페, 카페, 강남, 37.494025, 127.032639, 4.5, 215, 02-2189-2046, 서울 강남구 역삼로 121 유성빌딩 1층 지하1층,https://img1.kakaocdn.net/cthumb/local/R0x420/?fname=http%3A%2F%2Ft1.daumcdn.net%2Fplace%2F2C291170E07846659EA65EC4EC828350
23254386, 더 달달, 카페, 강남, 37.503161, 127.028423, 4.1, 432, 02-562-3737, 서울 강남구 강남대로102길 38-6 1층 2층,https://img1.kakaocdn.net/cthumb/local/R0x420/?fname=http%3A%2F%2Ft1.daumcdn.net%2Fcfile%2F216D313652F458512E
1052653971, 셀렉티드마롱, 카페, 강남, 37.496527, 127.030260, 4.5, 121, 070-4284-5104, 서울 강남구 테헨란로4길 37 1층,https://img1.kakaocdn.net/cthumb/local/R0x420/?fname=http%3A%2F%2Ft1.kakaocdn.net%2Fmystore%2F59ED095A27FD48A4817298630A8506C9
1007061724, 오너스, 바(BAR), 강남, 37.503509, 127.026590, 3.6, 57, 02-556-1116, 서울 강남구 봉은사로4길 19 3층,https://img1.kakaocdn.net/cthumb/local/R0x420/?fname=http%3A%2F%2Ft1.daumcdn.net%2Flocalfiy%2F5834D6660E664367B265E76B44CA3CA7
640630615, 앙트레블, 카페, 강남, 37.503833, 127.028240, 4.8, 61, 02-571-1076, 서울 강남구 강남대로102길 45 지하1층,https://img1.kakaocdn.net/cthumb/local/R0x420/?fname=http%3A%2F%2Ft1.kakaocdn.net%2Ffiy_reboot%2Fplace%2FD149928123AB405B8F7013B68B44F4DE
126578831, 아티제 역삼역점, 카페, 강남, 37.501601, 127.037981, 3.6, 10, 02-557-2155, 서울 강남구 테헤란로 203 SI타워빌딩 2층,https://img1.kakaocdn.net/cthumb/local/R0x420/?fname=http%3A%2F%2Ft1.daumcdn.net%2Fplace%2FA40C3C70FC364BC090619B1CC9CEF887
1349460427, 파라노이드 강남뱅뱅 카페, 카페, 강남, 37.490371, 127.031851, 4.1, 55, 02-6953-7228, 서울 강남구 강남대로62길 3 한진빌딩 1층,https://img1.kakaocdn.net/cthumb/local/R0x420/?fname=http%3A%2F%2Ft1.kakaocdn.net%2Fmystore%2F192ECAD9AFD3462FBD3D639DC7BC2EEA
1692043917, 구테로이테, 카페, 강남, 37.517609, 127.039663, 4.2, 643, 02-528-1117, 서울 강남구 선릉로131길 16 1층,https://img1.kakaocdn.net/cthumb/local/R0x420/?fname=http%3A%2F%2Ft1.kakaocdn.net%2Fmystore%2F67185A04C5D44035AD149EFC310FE189
853588987, 마키아티 강남점, 카페, 강남, 37.496836, 127.029827, 4.3, 11, 02-561-8511, 서울 강남구 강남대로84길 15 효성해링턴타워 1층 103호,https://img1.kakaocdn.net/cthumb/local/R0x420/?fname=http%3A%2F%2Ft1.daumcdn.net%2Fplace%2F65BA70C8A5D547109CEA6971A4AF0580
195237877, 신미경홍대닭갈비, 한식, 홍대, 37.552124, 126.921830, 4.8, 289, 02-2245-5222, 서울 마포구 와우산로21길 31-10 1층,https://img1.kakaocdn.net/cthumb/local/R0x420/?fname=http%3A%2F%2Ft1.kakaocdn.net%2Ffiy_reboot%2Fplace%2F78EB5D33035A42B696989A34EC656BF8
1660183479, 육몽 홍대본점, 한식, 홍대, 37.553225, 126.920696, 4.4, 1575, 02-338-1142, 서울 마포구 양화로16길 19 1 2층,https://img1.kakaocdn.net/cthumb/local/R0x420/?fname=http%3A%2F%2Ft1.daumcdn.net%2Fplace%2FE857D35E39CC4A989A82D719FA81E683
20699830, 초마, 중식, 홍대, 37.550888, 126.923368, 3.9, 21, 070-7661-8963, 서울 마포구 와우산로 72 2층,https://img1.kakaocdn.net/cthumb/local/R0x420/?fname=http%3A%2F%2Ft1.kakaocdn.net%2Ffiy_reboot%2Fplace%2FC463C3B6677D443D8A36165211E0065D
18514677, 황곱, 한식, 홍대, 37.556684, 126.926343, 4.8, 255, 02-337-8292, 서울 마포구 어울마당로 149 1층,https://img1.kakaocdn.net/cthumb/local/R0x420/?fname=http%3A%2F%2Ft1.kakaocdn.net%2Ffiy_reboot%2Fplace%2FC291C8B3C98E4CB2AAF5629F8F6A2D1F
13333463, 홍대돈부리 본점, 일식, 홍대, 37.552027, 126.921354, 3.5, 54, 02-3141-8398, 서울 마포구 잔다리로6길 40-8 지하 1층,https://img1.kakaocdn.net/cthumb/local/R0x420/?fname=http%3A%2F%2Ft1.daumcdn.net%2Fcfile%2F157F3B3D4FF29FAC15
1372734736, 카페 그랑주, 카페, 홍대, 37.554165, 126.921434, 2.9, 205, 02-325-3131, 서울 마포구 홍익로5길 13 동신빌딩 지하1층,https://img1.kakaocdn.net/cthumb/local/R0x420/?fname=http%3A%2F%2Ft1.daumcdn.net%2Flocalfiy%2Fsearchregister_789319524
9362425, 위드커피, 카페, 홍대, 37.556683, 126.925334, 4.1, 41, 02-322-7557, 서울 마포구 양화로18안길 12 1 2층,https://img1.kakaocdn.net/cthumb/local/R0x420/?fname=http%3A%2F%2Ft1.daumcdn.net%2Fcfile%2F1560834A500DFF610F
557185976,ROOM 201, 양식, 명동, 37.560913, 126.986167, 4.69, 407, 02-752-1964, 서울 중구 퇴계로 130 2층,https://img1.kakaocdn.net/cthumb/local/R0x420/?fname=http%3A%2F%2Ft1.kakaocdn.net%2Ffiy_reboot%2Fplace%2FE268C11BE4824A86A14FAE177C975A1E
1719735175, 목구멍 이수점, 한식, 사당, 37.487833, 126.981220, 4.6, 119, 02-534-1959, 서울 동작구 동작대로27길 16-4,https://img1.kakaocdn.net/cthumb/local/R0x420/?fname=http%3A%2F%2Ft1.daumcdn.net%2Fplace%2F53FDF74452DB480293CBF07295D1285F
2081787169, 화설 사당이수점, 한식, 사당, 37.486401, 126.981282, 4.7, 1142, 02-6956-9934, 서울 동작구 동작대로25길 13 1 2층,https://img1.kakaocdn.net/cthumb/local/R0x420/?fname=http%3A%2F%2Ft1.daumcdn.net%2Flocal%2FkakaomapPhoto%2Freview%2F0eab1510b6ad28403b332cb929c752e607017f7d%3Foriginal
666379058, 소우트, 일식, 사당, 37.480276, 126.983800, 4.5, 35, 0507-1344-3091, 서울 서초구 방배천로2안길 69 1층,https://img1.kakaocdn.net/cthumb/local/R0x420/?fname=https%3A%2F%2Fdthumb-phinf.pstatic.net%2F%3Fsrc%3D%2522https%253A%252F%252Fimage.toast.com%252Faaaaaqx%252Fcatchtable%252Fshopinfo%252FsEeqsnAddCb9VKewVx8W6IA%252Feeqsnaddcb9vkewvx8w6ia_2342017454818662.jpeg%2522%26type%3Dff500_300
918748247, 하선생, 중식, 사당, 37.4785, 126.981, 4.3, 22, 02-521-5512, 서울 동작구 동작대로3길 8,https://img1.kakaocdn.net/cthumb/local/R0x420/?fname=http%3A%2F%2Ft1.daumcdn.net%2Fplace%2FB9D01C038C9A4A0FAF68D4C2F93A19D7
12108448, 스타벅스 사당역점, 카페, 사당, 37.4786, 126.9814, 4.4, 65, 1522-3232, 서울 동작구 동작대로 21 양지빌딩 1~3층,https://img1.kakaocdn.net/cthumb/local/R0x420/?fname=http%3A%2F%2Ft1.daumcdn.net%2Fcfile%2F2442874B55E006C632
8117522, 파리바게뜨 사당역점, 카페, 사당, 37.478766, 126.981329, 3.8, 5, 02-582-0280, 서울 동작구 동작대로 25 사임당화정품빌딩 1층,https://img1.kakaocdn.net/cthumb/local/R0x420/?fname=http%3A%2F%2Fcfile175.uf.daum.net%2Fimage%2F9938EC465AD577E91E0957
21238379, 미소네, 한식, 사당, 37.479433, 126.980088, 3.8, 144, 02-587-7191, 서울 동작구 동작대로7길 32 1층,https://img1.kakaocdn.net/cthumb/local/R0x420/?fname=http%3A%2F%2Ft1.daumcdn.net%2Fplace%2F659A9285254C4C92A2F57A098D1DF7B2
779866548, 바제, 양식, 사당, 37.480431, 126.984347, 4.8, 48, 0507-1466-0677, 서울 서초구 방배천로8길 34 1층,https://img1.kakaocdn.net/cthumb/local/R0x420/?fname=http%3A%2F%2Ft1.daumcdn.net%2Fplace%2F515B6560F146403DAD9A330CDFD65CDF
15274115, 올리브에비뉴, 양식, 사당, 37.477757, 126.982202, 2.9, 88, 02-3474-7777, 서울 서초구 방배천로 11 파스텔시티 6층,https://img1.kakaocdn.net/cthumb/local/R0x420/?fname=http%3A%2F%2Ft1.daumcdn.net%2Fcfile%2F11512B354F7EB9801B
27471130, 미스터초이사당점, 양식, 사당, 37.478584, 126.979492, 4.1, 22, 02-6053-7202, 서울 동작구 동작대로3길 31 1층,https://img1.kakaocdn.net/cthumb/local/R0x420/?fname=http%3A%2F%2Ft1.daumcdn.net%2Fplace%2F044EEE6D3D374DB09976D63B97F288E3
1403472942, 마포 곱창 홍대점1, 한식, 홍대, 37.556469, 126.925574, 1.3, 6, 02-336-0062, 서울 마포구 어울마당로 141-1 1층,https://img1.kakaocdn.net/cthumb/local/R0x420/?fname=http%3A%2F%2Ft1.daumcdn.net%2Fplace%2FA75929F99A874C05940451B86C22EFF6
22439185, 더몸짱쭈꾸미 종로낙원상가점, 한식, 낙원동, 37.500986, 126.932423, 1, 0, 02-734-8833, 서울 종로구 돈화문로11길 48,https://mblogthumb-phinf.pstatic.net/MjAxOTA0MDFfMjA5/MDAxNTU0MTI0Nzg4NDg5.dOFAmOL7KZKcZETVNWM8Igv6JJGuI21AgH3UBUJoqDkg.yGLebNZqF35TLmdLeCiZwC9B8nWWQd1CVxRG-Vj9Wy4g.JPEG.cutekitty725/7815447085962711540_IMG_0922.JPG?type=w800
15673961, 김영희강남동태찜 경복궁점, 한식, 강남, 37.576337, 126.971185, 4.0, 15, 02-561-5007, 서울 강남구 선릉로62길 13,https://mblogthumb-phinf.pstatic.net/MjAyMTExMThfMTE2/MDAxNjM3MjI3NDI4NjMx.CEmwbn6jKV1d_A8tKnwGTEDIIx0oE_qpbQwdSlbpFUwg.N5HHxhiAK0QV_2jA6rZD79Up1KkLLqu8LGGsYiLez28g.JPEG.gomtn/20211118%EF%BC%BF181351.jpg?type=w800
18772132, 김밥월드 언주역점, 한식, 강남, 37.507577, 127.037414, 1.0, 8, 02-501-0887, 서울 강남구 언주로107길 22 1층,https://img1.kakaocdn.net/cthumb/local/R0x420/?fname=https%3A%2F%2Fdthumb-phinf.pstatic.net%2F%3Fsrc%3D%2522https%253A%252F%252Fsearch.pstatic.net%252Fcommon%252F%253FautoRotate%253Dtrue%2526quality%253D100%2526type%253Df640_380%2526src%253Dhttps%25253A%25252F%25252Fldb-phinf.pstatic.net%25252F20190917_255%25252F1568700096529Kmfsd_JPEG%25252FzTGn42ruAwhgbgn1S1rufM00.jpg%2522%26type%3Dff500_300
1531032887, 명동아지트, 카페, 명동, 37.561961, 126.985403, 5, 69, 02-778-6081, 서울 중구 명동8가길 7,https://img1.kakaocdn.net/cthumb/local/R0x420/?fname=http%3A%2F%2Ft1.daumcdn.net%2Flocal%2FkakaomapPhoto%2Freview%2F1cf85f92c6a2436970f7b6cab474ce79b2729e80%3Foriginal
448756749, 리사르커피명동점, 카페, 명동, 37.561959, 126.988225, 5, 69, 02-778-6081, 서울 중구 명동8가길 7,https://img1.kakaocdn.net/cthumb/local/R0x420/?fname=http%3A%2F%2Ft1.daumcdn.net%2Flocal%2FkakaomapPhoto%2Freview%2F4fb5cc37173bc2cceb5f02925e6f015067ac5a3a%3Foriginal
1264389667, AboutBagel, 카페, 명동, 37.564774, 126.983145, 3.7, 1, -, 서울 중구 명동7가길 22 1~4층,https://img1.kakaocdn.net/cthumb/local/R0x420/?fname=http%3A%2F%2Ft1.daumcdn.net%2Flocal%2FkakaomapPhoto%2Freview%2Fafa22225dc8947d8a23afac9cb44a32ff580827a%3Foriginal
802029125, 카페구할구, 카페, 명동, 37.558633, 126.987030, 4.3, 49, 02-3789-5953, 서울 중구 퇴계로20길 73,https://img1.kakaocdn.net/cthumb/local/R0x420/?fname=http%3A%2F%2Ft1.kakaocdn.net%2Ffiy_reboot%2Fplace%2FD969BE32CDEE4CFA8D6F3F4273C56278
1076687577, 남촌회관, 한식, 명동, 37.567337, 126.978439, 4, 333, 02-730-0709, 서울 중구 세종대로20길 19 유성빌딩 1층,https://img1.kakaocdn.net/cthumb/local/R0x420/?fname=http%3A%2F%2Ft1.daumcdn.net%2Flocal%2FkakaomapPhoto%2Freview%2F53674e37e0e37aacd4f475db4cce6ed47eb7cba2%3Foriginal
302836751, 아키나이 제면, 일식, 명동, 37.563079, 126.982302, 3.89, 144, -, 서울 성동구 왕십리광장로 17 왕십리민자역사 4층,https://img1.kakaocdn.net/cthumb/local/R0x420/?fname=http%3A%2F%2Ft1.kakaocdn.net%2Fmystore%2F9E8AA7FF676C4387947384A750941C24
8609409, 향미 명동점, 중식, 명동, 37.562218, 126.981725, 3.95, 405, 02-773-8835, 서울 중구 남대문로 52-5 1층,https://img1.kakaocdn.net/cthumb/local/R0x420/?fname=https%3A%2F%2Fk.kakaocdn.net%2Fdn%2Fp91xd%2FbtrOeR1EhDl%2FC7xlmpYFWgpLTbVFelwRlK%2Fimg.jpg
647860343, 중심 명동, 중식, 명동, 37.561780, 126.982547, 3.5, 17, 02-777-8996, 서울 중구 명동8나길 38 3층,https://img1.kakaocdn.net/cthumb/local/R0x420/?fname=http%3A%2F%2Ft1.kakaocdn.net%2Fmystore%2FACF0CCC169DF46349C76EE032A21B747
1335913739, 금산제면소, 한식, 명동, 37.558630, 126.983679, 1.9, 225, -, 서울 중구 소공로6길 13,https://img1.kakaocdn.net/cthumb/local/R0x420/?fname=http%3A%2F%2Ft1.daumcdn.net%2Flocal%2FkakaomapPhoto%2Freview%2F179b7c5822bd04b2844399ed70e451102ab097e6%3Foriginal
254918904, 다올 숯불구이, 한식, 명동, 37.475601, 126.937821, 3.74, 417, 0507-1462-1246, 서울 중구 명동8길 8-11 1 2층,https://img1.kakaocdn.net/cthumb/local/R0x420/?fname=http%3A%2F%2Ft1.kakaocdn.net%2Ffiy_reboot%2Fplace%2FD0E7290B1CC54699B41B8EF6B0A01D4F
549474667, 야마야 강남N타워점, 일식, 강남, 37.499799, 127.032435, 3.3, 21, 02-6250-0980, 서울 강남구 테헤란로 129 강남N타워 1층,https://img1.kakaocdn.net/cthumb/local/R0x420/?fname=http%3A%2F%2Ft1.kakaocdn.net%2Fmystore%2FC7FF958917CA4D63BE2DBEF6191974CB
26816485, 강남꿀돼지, 한식, 강남, 37.514442, 127.064657, 3.0, 1, 02-508-8552, 서울 강남구 봉은사로108길 3-14,https://img1.kakaocdn.net/cthumb/local/R0x420/?fname=http%3A%2F%2Ft1.daumcdn.net%2Fplace%2F47E2014135014B7A96B5807ACCCF2547
22105109, 스타벅스 홍대역점, 카페, 홍대, 37.557156, 126.923582, 3.8, 497, 1522-3232, 서울 마포구 양화로 165 상진빌딩 1층,https://img1.kakaocdn.net/cthumb/local/R0x420/?fname=http%3A%2F%2Ft1.daumcdn.net%2Fcfile%2F2302F05055E006D71F